{"centre":{"nhits":459,"parameters":{"dataset":"244400404_tan-arrets","geofilter.polygon":[{"type":"Polygon","orientation":"ccw","coordinates":[[[-1.5893376,47.2003053],[-1.5891874,47.1996273],[-1.588254,47.1978997],[-1.5860653,47.1958512],[-1.5767956,47.1981111],[-1.5543079,47.198286],[-1.5419054,47.1993357],[-1.5284729,47.2046424],[-1.5194178,47.2098027],[-1.5148473,47.2140006],[-1.5158343,47.2182273],[-1.5168214,47.2208069],[-1.5182376,47.2225848],[-1.5327108,47.2330982],[-1.5344489,47.233681],[-1.547184,47.2354804],[-1.5509605,47.235087],[-1.555177,47.2333022],[-1.5565503,47.2330108],[-1.5579343,47.2330108],[-1.5633845,47.2342201],[-1.566174,47.2331929],[-1.572268,47.2296814],[-1.5808511,47.2279183],[-1.5823531,47.227248],[-1.583147,47.2264465],[-1.5877604,47.218067],[-1.5876102,47.2174257],[-1.5859151,47.2141901],[-1.5871596,47.2088115],[-1.5893483,47.2003709],[-1.5893376,47.2003053]]]}],"timezone":"UTC","rows":10,"start":0,"format":"json","lang":"fr"},"records":[{"datasetid":"244400404_tan-arrets","recordid":"d8f6da93aee0cb23fe675869daf37f3d174130b7","fields":{"stop_coordinates":[47.20899731,-1.55009787],"stop_name":"Aimé Delrue","location_type":"1","stop_id":"ADEL"},"geometry":{"type":"Point","coordinates":[-1.55009787,47.20899731]},"record_timestamp":"2020-10-23T15:07:03.057000+00:00"},{"datasetid":"244400404_tan-arrets","recordid":"4b08b9c244234b50d34e8810311a859fbccb8cfc","fields":{"stop_coordinates":[47.20394287,-1.53704358],"stop_name":"Beaulieu","location_type":"1","stop_id":"BENA"},"geometry":{"type":"Point","coordinates":[-1.53704358,47.20394287]},"record_timestamp":"2020-10-23T15:07:03.057000+00:00"},{"datasetid":"244400404_tan-arrets","recordid":"d71f4a6e970d3c2967f8b71cef569564d1cfa1d5","fields":{"stop_coordinates":[47.20895696,-1.56727727],"stop_name":"Chantiers Navals","location_type":"1","stop_id":"CNAV"},"geometry":{"type":"Point","coordinates":[-1.56727727,47.20895696]},"record_timestamp":"2020-10-23T15:07:03.057000+00:00"},{"datasetid":"244400404_tan-arrets","recordid":"b258322aa723df92615240bbd0d4d5f6c19307ac","fields":{"stop_coordinates":[47.22714308,-1.53277404],"stop_name":"Casterneau","location_type":"1","stop_id":"CSTE"},"geometry":{"type":"Point","coordinates":[-1.53277404,47.22714308]},"record_timestamp":"2020-10-23T15:07:03.057000+00:00"},{"datasetid":"244400404_tan-arrets","recordid":"aac567921167f0785098d8e9e15584b1a4421496","fields":{"stop_coordinates":[47.2070496,-1.53303919],"stop_name":"Conservatoire","location_type":"1","stop_id":"CSVA"},"geometry":{"type":"Point","coordinates":[-1.53303919,47.2070496]},"record_timestamp":"2020-10-23T15:07:03.057000+00:00"},{"datasetid":"244400404_tan-arrets","recordid":"b41cd176abc424221826832f8adc9061675df5ba","fields":{"stop_coordinates":[47.21063914,-1.58669791],"stop_name":"Convention","location_type":"1","stop_id":"CVTI"},"geometry":{"type":"Point","coordinates":[-1.58669791,47.21063914]},"record_timestamp":"2020-10-23T15:07:03.057000+00:00"},{"datasetid":"244400404_tan-arrets","recordid":"79f4422f87a195b80ab83475941690a26f262d59","fields":{"stop_coordinates":[47.21510965,-1.526352],"stop_name":"Écosse","location_type":"1","stop_id":"ECOS"},"geometry":{"type":"Point","coordinates":[-1.526352,47.21510965]},"record_timestamp":"2020-10-23T15:07:03.057000+00:00"},{"datasetid":"244400404_tan-arrets","recordid":"fd4a8da3b843ee1a47a21cd4fdcffd5a42076f6b","fields":{"stop_coordinates":[47.21440179,-1.56873205],"stop_name":"Édit de Nantes","location_type":"1","stop_id":"EDNA"},"geometry":{"type":"Point","coordinates":[-1.56873205,47.21440179]},"record_timestamp":"2020-10-23T15:07:03.057000+00:00"},{"datasetid":"244400404_tan-arrets","recordid":"c069a424a5d2c1b52fa2547a402426f439e57ca5","fields":{"stop_coordinates":[47.22381394,-1.57536864],"stop_name":"Équipement","location_type":"1","stop_id":"EQPE"},"geometry":{"type":"Point","coordinates":[-1.57536864,47.22381394]},"record_timestamp":"2020-10-23T15:07:03.057000+00:00"},{"datasetid":"244400404_tan-arrets","recordid":"064e6b4d82b819a095a9e1a3f4b6982046f825e6","fields":{"stop_coordinates":[47.2188039,-1.55041375],"stop_name":"Foch-Cathédrale","location_type":"1","stop_id":"FOCH"},"geometry":{"type":"Point","coordinates":[-1.55041375,47.2188039]},"record_timestamp":"2020-10-23T15:07:03.057000+00:00"}]},"nord":{"nhits":698,"parameters":{"dataset":"244400404_tan-arrets","geofilter.polygon":[{"type":"Polygon","orientation":"ccw","coordinates":[[[-1.5489435,47.2353638],[-1.5473127,47.235393],[-1.5359402,47.2338486],[-1.5333223,47.2332658],[-1.5186024,47.2228617],[-1.5172291,47.2214627],[-1.515727,47.2180524],[-1.5153408,47.2168136],[-1.4839268,47.2246396],[-1.4612675,47.2413661],[-1.4428139,47.2443961],[-1.4186096,47.2645531],[-1.405735,47.2806265],[-1.4342308,47.3021666],[-1.492424,47.3131079],[-1.5317345,47.2990234],[-1.5329361,47.2927366],[-1.526413,47.2831885],[-1.5276146,47.2768998],[-1.537571,47.2665334],[-1.536541,47.2590777],[-1.5411758,47.2489409],[-1.5495872,47.2376366],[-1.5489435,47.2353638]]]}],"timezone":"UTC","rows":10,"start":0,"format":"json","lang":"fr"},"records":[{"datasetid":"244400404_tan-arrets","recordid":"80346625df64c948585a2f8e3765647ff235c0b0","fields":{"stop_coordinates":[47.26791335,-1.47684627],"stop_name":"Adrienne Bolland","location_type":"1","stop_id":"ABOL"},"geometry":{"type":"Point","coordinates":[-1.47684627,47.26791335]},"record_timestamp":"2020-10-23T15:07:03.057000+00:00"},{"datasetid":"244400404_tan-arrets","recordid":"e9c337ee4d638b25a14aab6d45cbf6c3086aa962","fields":{"stop_coordinates":[47.25762607,-1.51540161],"stop_name":"Boulodrome","location_type":"1","stop_id":"BLDR"},"geometry":{"type":"Point","coordinates":[-1.51540161,47.25762607]},"record_timestamp":"2020-10-23T15:07:03.057000+00:00"},{"datasetid":"244400404_tan-arrets","recordid":"7f3b28b8f6a3e05844085c12d3dd74a49599a6ea","fields":{"stop_coordinates":[47.2351455,-1.51973294],"stop_name":"Bois Robillard","location_type":"1","stop_id":"BRBI"},"geometry":{"type":"Point","coordinates":[-1.51973294,47.2351455]},"record_timestamp":"2020-10-23T15:07:03.057000+00:00"},{"datasetid":"244400404_tan-arrets","recordid":"abb0e7829d62527af878dc9db953e5efcff43e27","fields":{"stop_coordinates":[47.26963544,-1.43542278],"stop_name":"Clémencière","location_type":"1","stop_id":"CMCI"},"geometry":{"type":"Point","coordinates":[-1.43542278,47.26963544]},"record_timestamp":"2020-10-23T15:07:03.057000+00:00"},{"datasetid":"244400404_tan-arrets","recordid":"2f613f206ddbf535146cca3c9947917f9eaef218","fields":{"stop_coordinates":[47.26474579,-1.49633352],"stop_name":"Davum","location_type":"1","stop_id":"DAVU"},"geometry":{"type":"Point","coordinates":[-1.49633352,47.26474579]},"record_timestamp":"2020-10-23T15:07:03.057000+00:00"},{"datasetid":"244400404_tan-arrets","recordid":"7c951c1101203f8a032b9195c9e77548dbf4ee84","fields":{"stop_coordinates":[47.29231724,-1.52028568],"stop_name":"Guiblinière","location_type":"1","stop_id":"GBNI"},"geometry":{"type":"Point","coordinates":[-1.52028568,47.29231724]},"record_timestamp":"2020-10-23T15:07:03.057000+00:00"},{"datasetid":"244400404_tan-arrets","recordid":"8ee226667b1d6725a54a77454a5e9616b8a4528f","fields":{"stop_coordinates":[47.25814223,-1.45908439],"stop_name":"Gicquelière","location_type":"1","stop_id":"GIQU"},"geometry":{"type":"Point","coordinates":[-1.45908439,47.25814223]},"record_timestamp":"2020-10-23T15:07:03.057000+00:00"},{"datasetid":"244400404_tan-arrets","recordid":"b4a53d8a7d9475806179aa34aab5a3860c6974b3","fields":{"stop_coordinates":[47.24892458,-1.52244622],"stop_name":"Haluchère - Batignolles","location_type":"1","stop_id":"HALU"},"geometry":{"type":"Point","coordinates":[-1.52244622,47.24892458]},"record_timestamp":"2020-10-23T15:07:03.057000+00:00"},{"datasetid":"244400404_tan-arrets","recordid":"b5a06d113df946db3d6d74ff2595552123453a68","fields":{"stop_coordinates":[47.26686052,-1.49502977],"stop_name":"Lefeuvre","location_type":"1","stop_id":"LFVR"},"geometry":{"type":"Point","coordinates":[-1.49502977,47.26686052]},"record_timestamp":"2020-10-23T15:07:03.057000+00:00"},{"datasetid":"244400404_tan-arrets","recordid":"5eaad150d22c5a883279cb4fb9d6a44e0134d801","fields":{"stop_coordinates":[47.26231761,-1.49893768],"stop_name":"La Hache","location_type":"1","stop_id":"LHAC"},"geometry":{"type":"Point","coordinates":[-1.49893768,47.26231761]},"record_timestamp":"2020-10-23T15:07:03.057000+00:00"}]},"ouest":{"nhits":1247,"parameters":{"dataset":"244400404_tan-arrets","geofilter.polygon":[{"type":"Polygon","orientation":"ccw","coordinates":[[[-1.5893376,47.2003053],[-1.5893483,47.2003709],[-1.5871596,47.2088115],[-1.5859151,47.2141901],[-1.5876102,47.2174257],[-1.5877604,47.218067],[-1.583147,47.2264465],[-1.5823531,47.227248],[-1.5808511,47.2279183],[-1.572268,47.2296814],[-1.566174,47.2331929],[-1.5633845,47.2342201],[-1.5579343,47.2330108],[-1.5565503,47.2330108],[-1.555177,47.2333022],[-1.5509605,47.235087],[-1.5490508,47.235291],[-1.5500593,47.23803],[-1.5395451,47.2520287],[-1.5367985,47.2640871],[-1.5318203,47.2724739],[-1.526413,47.2815581],[-1.5343094,47.2943666],[-1.5389442,47.3071719],[-1.5569687,47.3397533],[-1.62117,47.3390554],[-1.6623688,47.3101982],[-1.7063141,47.2773656],[-1.7262268,47.2412496],[-1.7293167,47.2079077],[-1.7080307,47.2068582],[-1.6585922,47.1920455],[-1.6204834,47.1934453],[-1.5997124,47.1919289],[-1.5861511,47.1954283],[-1.588254,47.1978997],[-1.5891874,47.1996273],[-1.5893376,47.2003053]]]}],"timezone":"UTC","rows":10,"start":0,"format":"json","lang":"fr"},"records":[{"datasetid":"244400404_tan-arrets","recordid":"46060173fb84de8e90b22f37f8bdbe47b01c977a","fields":{"stop_coordinates":[47.22024715,-1.60339908],"stop_name":"Abel Durand","location_type":"1","stop_id":"ABDU"},"geometry":{"type":"Point","coordinates":[-1.60339908,47.22024715]},"record_timestamp":"2020-10-23T15:07:03.057000+00:00"},{"datasetid":"244400404_tan-arrets","recordid":"b8e3541ad15342cd25a713f018899eb6d588ea9f","fields":{"stop_coordinates":[47.25367844,-1.59766118],"stop_name":"Avenue des Pins","location_type":"1","stop_id":"ADPI"},"geometry":{"type":"Point","coordinates":[-1.59766118,47.25367844]},"record_timestamp":"2020-10-23T15:07:03.057000+00:00"},{"datasetid":"244400404_tan-arrets","recordid":"de7398daa9b1149cfac7670d3c1a8aae15862592","fields":{"stop_coordinates":[47.27529402,-1.63710197],"stop_name":"Les Anges","location_type":"1","stop_id":"ANGE"},"geometry":{"type":"Point","coordinates":[-1.63710197,47.27529402]},"record_timestamp":"2020-10-23T15:07:03.057000+00:00"},{"datasetid":"244400404_tan-arrets","recordid":"9a3cf7fbe96594a8920d7ad174d5c31e2a41cf7a","fields":{"stop_coordinates":[47.26753227,-1.58227339],"stop_name":"Bout des Landes","location_type":"1","stop_id":"BDLA"},"geometry":{"type":"Point","coordinates":[-1.58227339,47.26753227]},"record_timestamp":"2020-10-23T15:07:03.057000+00:00"},{"datasetid":"244400404_tan-arrets","recordid":"8fbbdf90d0c03239c8c343269aaffb749b6f2eb9","fields":{"stop_coordinates":[47.2146289,-1.71349968],"stop_name":"Bessonneau","location_type":"1","stop_id":"BESS"},"geometry":{"type":"Point","coordinates":[-1.71349968,47.2146289]},"record_timestamp":"2020-10-23T15:07:03.057000+00:00"},{"datasetid":"244400404_tan-arrets","recordid":"4e26f9e0b9f1b0100180b02c270995f1a1c339b6","fields":{"stop_coordinates":[47.23950537,-1.60124722],"stop_name":"Bergeronnettes","location_type":"1","stop_id":"BGTT"},"geometry":{"type":"Point","coordinates":[-1.60124722,47.23950537]},"record_timestamp":"2020-10-23T15:07:03.057000+00:00"},{"datasetid":"244400404_tan-arrets","recordid":"e627c1920caa54e37fd84eefd57d995930bb0fd6","fields":{"stop_coordinates":[47.21576638,-1.67842053],"stop_name":"Berligout","location_type":"1","stop_id":"BLGO"},"geometry":{"type":"Point","coordinates":[-1.67842053,47.21576638]},"record_timestamp":"2020-10-23T15:07:03.057000+00:00"},{"datasetid":"244400404_tan-arrets","recordid":"e66830818174f944300fa106ff0e56e21d86a763","fields":{"stop_coordinates":[47.22988866,-1.65303418],"stop_name":"Bobby Sands","location_type":"1","stop_id":"BSAN"},"geometry":{"type":"Point","coordinates":[-1.65303418,47.22988866]},"record_timestamp":"2020-10-23T15:07:03.057000+00:00"},{"datasetid":"244400404_tan-arrets","recordid":"30e228e0806f2f80b3e6965dbda5cd92c38280fd","fields":{"stop_coordinates":[47.25712789,-1.5756898],"stop_name":"Bertrand","location_type":"1","stop_id":"BTRA"},"geometry":{"type":"Point","coordinates":[-1.5756898,47.25712789]},"record_timestamp":"2020-10-23T15:07:03.057000+00:00"},{"datasetid":"244400404_tan-arrets","recordid":"62cdefbe9575c07a01502ce5376075a88324a40a","fields":{"stop_coordinates":[47.25996214,-1.63768218],"stop_name":"Bugallière","location_type":"1","stop_id":"BUGA"},"geometry":{"type":"Point","coordinates":[-1.63768218,47.25996214]},"record_timestamp":"2020-10-23T15:07:03.057000+00:00"}]},"sud":{"nhits":652,"parameters":{"dataset":"244400404_tan-arrets","geofilter.polygon":[{"type":"Polygon","orientation":"ccw","coordinates":[[[-1.7832184,47.21024],[-1.7766953,47.1771121],[-1.6620255,47.1117288],[-1.5260696,47.1098595],[-1.4996338,47.1399936],[-1.5029812,47.1702856],[-1.507659,47.1731155],[-1.5118647,47.1766745],[-1.5131092,47.1799416],[-1.5155983,47.1804666],[-1.5202332,47.1808458],[-1.5296745,47.1825959],[-1.532464,47.183646],[-1.5347815,47.186096],[-1.5364981,47.1897708],[-1.541605,47.1931537],[-1.5483856,47.1976737],[-1.568985,47.1979944],[-1.579113,47.197178],[-1.6005707,47.1920455],[-1.622715,47.193562],[-1.6378212,47.1919289],[-1.6517258,47.1915789],[-1.6738701,47.1958949],[-1.7056274,47.2067416],[-1.7263985,47.2076745],[-1.7523193,47.2035928],[-1.7832184,47.21024]]]}],"timezone":"UTC","rows":10,"start":0,"format":"json","lang":"fr"},"records":[{"datasetid":"244400404_tan-arrets","recordid":"093a6cff2abd11eeddb28c900bc14c47c95dd88d","fields":{"stop_coordinates":[47.17534325,-1.62321096],"stop_name":"Allende","location_type":"1","stop_id":"ALDE"},"geometry":{"type":"Point","coordinates":[-1.62321096,47.17534325]},"record_timestamp":"2020-10-23T15:07:03.057000+00:00"},{"datasetid":"244400404_tan-arrets","recordid":"a5d9911e1c8f06eb6f26a66c4aa64971e0ca1c2d","fields":{"stop_coordinates":[47.16448229,-1.67932998],"stop_name":"Bouaye Coteaux","location_type":"1","stop_id":"BYTO"},"geometry":{"type":"Point","coordinates":[-1.67932998,47.16448229]},"record_timestamp":"2020-10-23T15:07:03.057000+00:00"},{"datasetid":"244400404_tan-arrets","recordid":"e1998368d18ade78758c78f3c0a514596ac0c858","fields":{"stop_coordinates":[47.20269502,-1.77828605],"stop_name":"Cochère","location_type":"1","stop_id":"CHER"},"geometry":{"type":"Point","coordinates":[-1.77828605,47.20269502]},"record_timestamp":"2020-10-23T15:07:03.057000+00:00"},{"datasetid":"244400404_tan-arrets","recordid":"dfe640e1f5c68c736d43ec5d5897e41e96bacb71","fields":{"stop_coordinates":[47.14374039,-1.52477013],"stop_name":"Champ Fleuri","location_type":"1","stop_id":"CHFL"},"geometry":{"type":"Point","coordinates":[-1.52477013,47.14374039]},"record_timestamp":"2020-10-23T15:07:03.057000+00:00"},{"datasetid":"244400404_tan-arrets","recordid":"f8fc4d2e19478e6b3ddbf37a43a2ce8f976004ad","fields":{"stop_coordinates":[47.18064454,-1.58674555],"stop_name":"Les Couëts","location_type":"1","stop_id":"COET"},"geometry":{"type":"Point","coordinates":[-1.58674555,47.18064454]},"record_timestamp":"2020-10-23T15:07:03.057000+00:00"},{"datasetid":"244400404_tan-arrets","recordid":"69e41a6939457479ca0d8ac3628e1b1b60714774","fields":{"stop_coordinates":[47.15444566,-1.5916926],"stop_name":"Claire Roman","location_type":"1","stop_id":"CRRO"},"geometry":{"type":"Point","coordinates":[-1.5916926,47.15444566]},"record_timestamp":"2020-10-23T15:07:03.057000+00:00"},{"datasetid":"244400404_tan-arrets","recordid":"1b50ecdbb5eb339fb4e11ced7ced8477ff2712ed","fields":{"stop_coordinates":[47.18647549,-1.58743716],"stop_name":"Caboteurs","location_type":"1","stop_id":"CTEU"},"geometry":{"type":"Point","coordinates":[-1.58743716,47.18647549]},"record_timestamp":"2020-10-23T15:07:03.057000+00:00"},{"datasetid":"244400404_tan-arrets","recordid":"610341fd35448bcb356e3a7be6ba9ad4c1305efe","fields":{"stop_coordinates":[47.1419758,-1.70470652],"stop_name":"Ennerie-Corbon","location_type":"1","stop_id":"ENCO"},"geometry":{"type":"Point","coordinates":[-1.70470652,47.1419758]},"record_timestamp":"2020-10-23T15:07:03.057000+00:00"},{"datasetid":"244400404_tan-arrets","recordid":"a274d03186b1e89e367c4aac5974ccb78be816e5","fields":{"stop_coordinates":[47.14026156,-1.70734952],"stop_name":"Ennerie","location_type":"1","stop_id":"ENRI"},"geometry":{"type":"Point","coordinates":[-1.70734952,47.14026156]},"record_timestamp":"2020-10-23T15:07:03.057000+00:00"},{"datasetid":"244400404_tan-arrets","recordid":"4ce3a8c757fe2db1da423ad5d9295955aedd6679","fields":{"stop_coordinates":[47.12620991,-1.62710292],"stop_name":"Garotterie","location_type":"1","stop_id":"GARO"},"geometry":{"type":"Point","coordinates":[-1.62710292,47.12620991]},"record_timestamp":"2020-10-23T15:07:03.057000+00:00"}]},"est":{"nhits":426,"parameters":{"dataset":"244400404_tan-arrets","geofilter.polygon":[{"type":"Polygon","orientation":"ccw","coordinates":[[[-1.5493298,47.1983152],[-1.5417337,47.1932995],[-1.5369701,47.1902374],[-1.5342236,47.1853377],[-1.530447,47.1827418],[-1.5225935,47.1811375],[-1.5138817,47.1802625],[-1.5122509,47.1790082],[-1.5119934,47.1773746],[-1.5089035,47.173874],[-1.5022087,47.1701106],[-1.4981318,47.169848],[-1.4918661,47.1675139],[-1.4829397,47.1690019],[-1.4815235,47.1675431],[-1.4815235,47.1658509],[-1.4823818,47.1639835],[-1.4799786,47.1616492],[-1.4737129,47.1579724],[-1.4707947,47.1516688],[-1.4676189,47.1507349],[-1.4586067,47.152953],[-1.4175797,47.1696438],[-1.4083099,47.2093071],[-1.4570618,47.2438135],[-1.4749146,47.2306431],[-1.4881325,47.2239984],[-1.5119076,47.2170031],[-1.520319,47.2083159],[-1.5306187,47.2031263],[-1.545639,47.1989275],[-1.5493298,47.1983152]]]}],"timezone":"UTC","rows":10,"start":0,"format":"json","lang":"fr"},"records":[{"datasetid":"244400404_tan-arrets","recordid":"262a54c330bcf564ac8779c6839f766894fc6da7","fields":{"stop_coordinates":[47.19496578,-1.51736648],"stop_name":"Augé","location_type":"1","stop_id":"AUGE"},"geometry":{"type":"Point","coordinates":[-1.51736648,47.19496578]},"record_timestamp":"2020-10-23T15:07:03.057000+00:00"},{"datasetid":"244400404_tan-arrets","recordid":"a93ec5403aaa5664afd45666bafca1fcd913d246","fields":{"stop_coordinates":[47.17553725,-1.46511578],"stop_name":"Bignonnet","location_type":"1","stop_id":"BNET"},"geometry":{"type":"Point","coordinates":[-1.46511578,47.17553725]},"record_timestamp":"2020-10-23T15:07:03.057000+00:00"},{"datasetid":"244400404_tan-arrets","recordid":"aa7ccc795a3d0d7bead5a3e5327015cac611ea6c","fields":{"stop_coordinates":[47.21332134,-1.46092737],"stop_name":"Corbon","location_type":"1","stop_id":"CRNO"},"geometry":{"type":"Point","coordinates":[-1.46092737,47.21332134]},"record_timestamp":"2020-10-23T15:07:03.057000+00:00"},{"datasetid":"244400404_tan-arrets","recordid":"20675a8bb3af92010be55bce850332cecbdeab85","fields":{"stop_coordinates":[47.19412346,-1.5290656],"stop_name":"Clos Toreau","location_type":"1","stop_id":"CTOR"},"geometry":{"type":"Point","coordinates":[-1.5290656,47.19412346]},"record_timestamp":"2020-10-23T15:07:03.057000+00:00"},{"datasetid":"244400404_tan-arrets","recordid":"0f0bfe361f6136e1fcd49deaf899895e049d3bcb","fields":{"stop_coordinates":[47.19046894,-1.48744749],"stop_name":"Curie","location_type":"1","stop_id":"CURI"},"geometry":{"type":"Point","coordinates":[-1.48744749,47.19046894]},"record_timestamp":"2020-10-23T15:07:03.057000+00:00"},{"datasetid":"244400404_tan-arrets","recordid":"591881d54ab7c0218f0dd01bb0d152bf3ea24475","fields":{"stop_coordinates":[47.21332275,-1.46634663],"stop_name":"Croix des Fosses","location_type":"1","stop_id":"CXFS"},"geometry":{"type":"Point","coordinates":[-1.46634663,47.21332275]},"record_timestamp":"2020-10-23T15:07:03.057000+00:00"},{"datasetid":"244400404_tan-arrets","recordid":"7ad5c5fb82922d02cc8ae8416738f2d0cd29a91d","fields":{"stop_coordinates":[47.17835436,-1.46980683],"stop_name":"Domaine","location_type":"1","stop_id":"DMAI"},"geometry":{"type":"Point","coordinates":[-1.46980683,47.17835436]},"record_timestamp":"2020-10-23T15:07:03.057000+00:00"},{"datasetid":"244400404_tan-arrets","recordid":"c17d4ce98b1b2b3d49d5eb25bfc805a290e0539c","fields":{"stop_coordinates":[47.16941272,-1.46785057],"stop_name":"Île de France","location_type":"1","stop_id":"IDFR"},"geometry":{"type":"Point","coordinates":[-1.46785057,47.16941272]},"record_timestamp":"2020-10-23T15:07:03.057000+00:00"},{"datasetid":"244400404_tan-arrets","recordid":"0703ebebaf08e9ac53f72426995752e980873c6c","fields":{"stop_coordinates":[47.20265743,-1.50549809],"stop_name":"Malnoue","location_type":"1","stop_id":"MNSS"},"geometry":{"type":"Point","coordinates":[-1.50549809,47.20265743]},"record_timestamp":"2020-10-23T15:07:03.057000+00:00"},{"datasetid":"244400404_tan-arrets","recordid":"85d159113c66fcf977765d662c0629bdedd01eea","fields":{"stop_coordinates":[47.19503341,-1.48288475],"stop_name":"Ouche des landes","location_type":"1","stop_id":"ODLA"},"geometry":{"type":"Point","coordinates":[-1.48288475,47.19503341]},"record_timestamp":"2020-10-23T15:07:03.057000+00:00"}]}}