[{"datasetid": "244400404_parcs-relais-nantes-metropole-disponibilites", "recordid": "2356df73ec2336be03c2635ac1f6eac3915847cf", "fields": {"grp_complet": 0, "grp_identifiant": "140", "grp_horodatage": "2021-01-26T09:29:46+01:00", "grp_disponible": 66, "location": [47.190033746, -1.551439449], "grp_statut": 5, "grp_exploitation": 200, "grp_nom": "P+R Huit Mai"}, "geometry": {"type": "Point", "coordinates": [-1.551439449, 47.190033746]}, "record_timestamp": "2021-01-26T09:34:00+01:00"},{"datasetid": "244400404_parcs-relais-nantes-metropole-disponibilites", "recordid": "67f81faf0330ddee5fb1129b09d39b7cab110c61", "fields": {"grp_complet": 0, "grp_identifiant": "141", "grp_horodatage": "2021-01-26T09:29:46+01:00", "grp_disponible": 316, "location": [47.259495169, -1.526680951], "grp_statut": 5, "grp_exploitation": 350, "grp_nom": "P+R La Beaujoire"}, "geometry": {"type": "Point", "coordinates": [-1.526680951, 47.259495169]}, "record_timestamp": "2021-01-26T09:34:00+01:00"},{"datasetid": "244400404_parcs-relais-nantes-metropole-disponibilites", "recordid": "922fb12c48bb60cdb055f73e1b0e7bd857ea05f2", "fields": {"grp_complet": 0, "grp_identifiant": "147", "grp_horodatage": "2021-01-26T09:29:46+01:00", "grp_disponible": 131, "location": [47.185974206, -1.521337475], "grp_statut": 5, "grp_exploitation": 234, "grp_nom": "P+R Bourdonni\u00e8res 1"}, "geometry": {"type": "Point", "coordinates": [-1.521337475, 47.185974206]}, "record_timestamp": "2021-01-26T09:34:00+01:00"},{"datasetid": "244400404_parcs-relais-nantes-metropole-disponibilites", "recordid": "caad49f040dcf698ab8d4824f3b14fe4f5f01082", "fields": {"grp_complet": 0, "grp_identifiant": "149", "grp_horodatage": "2021-01-26T09:29:46+01:00", "grp_disponible": 89, "location": [47.245904563, -1.618008347], "grp_statut": 5, "grp_exploitation": 160, "grp_nom": "P+R Marcel Paul"}, "geometry": {"type": "Point", "coordinates": [-1.618008347, 47.245904563]}, "record_timestamp": "2021-01-26T09:34:00+01:00"},{"datasetid": "244400404_parcs-relais-nantes-metropole-disponibilites", "recordid": "a7004361c77f073fbcb97e353e63b9ddefcdcae6", "fields": {"grp_complet": 0, "grp_identifiant": "150", "grp_horodatage": "2021-01-26T09:29:46+01:00", "grp_disponible": 222, "location": [47.254363267, -1.533136651], "grp_statut": 5, "grp_exploitation": 242, "grp_nom": "P+R Ranzay"}, "geometry": {"type": "Point", "coordinates": [-1.533136651, 47.254363267]}, "record_timestamp": "2021-01-26T09:34:00+01:00"},{"datasetid": "244400404_parcs-relais-nantes-metropole-disponibilites", "recordid": "39997fc3406febe8c7fd31f1d4b68cab9250a62a", "fields": {"grp_complet": 0, "grp_identifiant": "136", "grp_horodatage": "2021-01-26T09:29:46+01:00", "grp_disponible": 33, "location": [47.248450337, -1.522831171], "grp_statut": 5, "grp_exploitation": 118, "grp_nom": "P+R Haluch\u00e8re 1"}, "geometry": {"type": "Point", "coordinates": [-1.522831171, 47.248450337]}, "record_timestamp": "2021-01-26T09:34:00+01:00"},{"datasetid": "244400404_parcs-relais-nantes-metropole-disponibilites", "recordid": "90ed34e9315f14adde890990e5ee847450cdd482", "fields": {"grp_complet": 0, "grp_identifiant": "143", "grp_horodatage": "2021-01-26T09:29:46+01:00", "grp_disponible": 264, "location": [47.247823515, -1.602838744], "grp_statut": 5, "grp_exploitation": 283, "grp_nom": "P+R Orvault-Morli\u00e8re"}, "geometry": {"type": "Point", "coordinates": [-1.602838744, 47.247823515]}, "record_timestamp": "2021-01-26T09:34:00+01:00"},{"datasetid": "244400404_parcs-relais-nantes-metropole-disponibilites", "recordid": "24dca078cc132e0e658a093720bdb19d6cdc64b2", "fields": {"grp_complet": 0, "grp_identifiant": "151", "grp_horodatage": "2021-01-26T09:29:46+01:00", "grp_disponible": 82, "location": [47.223926678, -1.616635149], "grp_statut": 5, "grp_exploitation": 83, "grp_nom": "P+R Duguay-Trouin"}, "geometry": {"type": "Point", "coordinates": [-1.616635149, 47.223926678]}, "record_timestamp": "2021-01-26T09:34:00+01:00"},{"datasetid": "244400404_parcs-relais-nantes-metropole-disponibilites", "recordid": "52fbc3ad2bd4fca4581057595fa92bbca486b469", "fields": {"grp_complet": 0, "grp_identifiant": "145", "grp_horodatage": "2021-01-26T09:29:46+01:00", "grp_disponible": 156, "location": [47.180079914, -1.504733576], "grp_statut": 5, "grp_exploitation": 215, "grp_nom": "P+R Porte de Vertou 2"}, "geometry": {"type": "Point", "coordinates": [-1.504733576, 47.180079914]}, "record_timestamp": "2021-01-26T09:34:00+01:00"},{"datasetid": "244400404_parcs-relais-nantes-metropole-disponibilites", "recordid": "4c885322687e63d0c00500232522f6cc65a64b18", "fields": {"grp_complet": 0, "grp_identifiant": "153", "grp_horodatage": "2021-01-26T09:29:46+01:00", "grp_disponible": 48, "location": [47.176672444, -1.593399695], "grp_statut": 5, "grp_exploitation": 52, "grp_nom": "P+R Neustrie 2"}, "geometry": {"type": "Point", "coordinates": [-1.593399695, 47.176672444]}, "record_timestamp": "2021-01-26T09:34:00+01:00"},{"datasetid": "244400404_parcs-relais-nantes-metropole-disponibilites", "recordid": "fe385af2d2a9c079cec6029f5429149e955f260a", "fields": {"grp_complet": 0, "grp_identifiant": "135", "grp_horodatage": "2021-01-26T09:29:46+01:00", "grp_disponible": 178, "location": [47.221706194, -1.639484141], "grp_statut": 5, "grp_exploitation": 207, "grp_nom": "P+R Fran\u00e7ois Mitterrand"}, "geometry": {"type": "Point", "coordinates": [-1.639484141, 47.221706194]}, "record_timestamp": "2021-01-26T09:34:00+01:00"},{"datasetid": "244400404_parcs-relais-nantes-metropole-disponibilites", "recordid": "ebde073d16eb30e04aa1c18e569dad630d2189b3", "fields": {"grp_complet": 0, "grp_identifiant": "139", "grp_horodatage": "2021-01-26T09:29:46+01:00", "grp_disponible": 49, "location": [47.251735247, -1.552903101], "grp_statut": 5, "grp_exploitation": 95, "grp_nom": "P+R Recteur Schmitt"}, "geometry": {"type": "Point", "coordinates": [-1.552903101, 47.251735247]}, "record_timestamp": "2021-01-26T09:34:00+01:00"},{"datasetid": "244400404_parcs-relais-nantes-metropole-disponibilites", "recordid": "5c78b06b753df3cad7997dafa6cae9374933315d", "fields": {"grp_complet": 0, "grp_identifiant": "142", "grp_horodatage": "2021-01-26T09:29:46+01:00", "grp_disponible": 0, "location": [47.175453228, -1.593096477], "grp_statut": 0, "grp_exploitation": 0, "grp_nom": "P+R Neustrie 1"}, "geometry": {"type": "Point", "coordinates": [-1.593096477, 47.175453228]}, "record_timestamp": "2021-01-26T09:34:00+01:00"},{"datasetid": "244400404_parcs-relais-nantes-metropole-disponibilites", "recordid": "ba3c311fc15accf0119b6a448c8e9213210a2c94", "fields": {"grp_complet": 0, "grp_identifiant": "155", "grp_horodatage": "2021-01-26T09:29:46+01:00", "grp_disponible": 0, "location": [47.180393442, -1.505809144], "grp_statut": 0, "grp_exploitation": 0, "grp_nom": "P+R Porte de Vertou 1"}, "geometry": {"type": "Point", "coordinates": [-1.505809144, 47.180393442]}, "record_timestamp": "2021-01-26T09:34:00+01:00"},{"datasetid": "244400404_parcs-relais-nantes-metropole-disponibilites", "recordid": "4224d05b82ec52198b7074e2c8fe5846b69aafa6", "fields": {"grp_complet": 0, "grp_identifiant": "137", "grp_horodatage": "2021-01-26T09:29:46+01:00", "grp_disponible": 121, "location": [47.250230052, -1.524975193], "grp_statut": 5, "grp_exploitation": 155, "grp_nom": "P+R Haluch\u00e8re 2"}, "geometry": {"type": "Point", "coordinates": [-1.524975193, 47.250230052]}, "record_timestamp": "2021-01-26T09:34:00+01:00"},{"datasetid": "244400404_parcs-relais-nantes-metropole-disponibilites", "recordid": "326d585b88808e0926b69ad2cdb2418f4e8238e0", "fields": {"grp_complet": 0, "grp_identifiant": "152", "grp_horodatage": "2021-01-26T09:29:46+01:00", "grp_disponible": 163, "location": [47.220255838, -1.515851353], "grp_statut": 5, "grp_exploitation": 199, "grp_nom": "P+R Prairie de Mauve"}, "geometry": {"type": "Point", "coordinates": [-1.515851353, 47.220255838]}, "record_timestamp": "2021-01-26T09:34:00+01:00"},{"datasetid": "244400404_parcs-relais-nantes-metropole-disponibilites", "recordid": "2349cf1301feb0bf0cf1685bbff95d4ec70ae6c5", "fields": {"grp_complet": 0, "grp_identifiant": "138", "grp_horodatage": "2021-01-26T09:29:46+01:00", "grp_disponible": 137, "location": [47.262502086, -1.584511977], "grp_statut": 5, "grp_exploitation": 206, "grp_nom": "P+R Le Cardo"}, "geometry": {"type": "Point", "coordinates": [-1.584511977, 47.262502086]}, "record_timestamp": "2021-01-26T09:34:00+01:00"},{"datasetid": "244400404_parcs-relais-nantes-metropole-disponibilites", "recordid": "0ef7c5498950ba430754b723febd2ba0830ad88f", "fields": {"grp_complet": 0, "grp_identifiant": "146", "grp_horodatage": "2021-01-26T09:29:46+01:00", "grp_disponible": 0, "location": [47.196098941, -1.541047745], "grp_statut": 5, "grp_exploitation": 196, "grp_nom": "P+R Goudy"}, "geometry": {"type": "Point", "coordinates": [-1.541047745, 47.196098941]}, "record_timestamp": "2021-01-26T09:34:00+01:00"},{"datasetid": "244400404_parcs-relais-nantes-metropole-disponibilites", "recordid": "e1b03ade7584e18f6a65c30488946e2118b877ec", "fields": {"grp_complet": 0, "grp_identifiant": "148", "grp_horodatage": "2021-01-26T09:29:46+01:00", "grp_disponible": 56, "location": [47.186401496, -1.522982864], "grp_statut": 5, "grp_exploitation": 95, "grp_nom": "P+R Bourdonni\u00e8res 2"}, "geometry": {"type": "Point", "coordinates": [-1.522982864, 47.186401496]}, "record_timestamp": "2021-01-26T09:34:00+01:00"},{"datasetid": "244400404_parcs-relais-nantes-metropole-disponibilites", "recordid": "5e31a436cbc32b55c42366c9b5d6ded3b71159fb", "fields": {"grp_complet": 0, "grp_identifiant": "144", "grp_horodatage": "2021-01-26T09:29:46+01:00", "grp_disponible": 19, "location": [47.200139034, -1.533333621], "grp_statut": 5, "grp_exploitation": 208, "grp_nom": "P+R Gr\u00e9neraie"}, "geometry": {"type": "Point", "coordinates": [-1.533333621, 47.200139034]}, "record_timestamp": "2021-01-26T09:34:00+01:00"}]